[
  {
    "id": "d86c8a4e-7812-4c8d-8f73-c819abd36018",
    "site_id": "Gendarmenmarkt-Berlin",
    "site_name": "Gendarmenmarkt",
    "lat": 52.513603,
    "lng": 13.392657,
    "local_x": 51.31,
    "local_y": 0.37,
    "direction_deg": 88.5,
    "area_m2": 5483.21,
    "compactness": 0.2927,
    "occlusivity_m": 274.79,
    "enclosure_ratio": 0.2464,
    "saved_at": "2026-07-16T14:16:05.590Z"
  },
  {
    "id": "0bc778e6-3eae-4edb-9569-03afa9ca8ca3",
    "site_id": "Hauptwache-Frankfurt am Main",
    "site_name": "Hauptwache",
    "lat": 50.113739,
    "lng": 8.678971,
    "local_x": 69.57,
    "local_y": 27.22,
    "direction_deg": 80.1,
    "area_m2": 9620.3,
    "compactness": 0.2279,
    "occlusivity_m": 445.04,
    "enclosure_ratio": 0.1815,
    "saved_at": "2026-07-16T14:16:10.989Z"
  },
  {
    "id": "88d993ed-93ad-4a91-b8dd-c734ffbd59db",
    "site_id": "Römerberg-Frankfurt am Main",
    "site_name": "Römerberg",
    "lat": 50.110379,
    "lng": 8.681993,
    "local_x": -17.4,
    "local_y": 11.85,
    "direction_deg": 70.7,
    "area_m2": 2465.06,
    "compactness": 0.4514,
    "occlusivity_m": 161.7,
    "enclosure_ratio": 0.2894,
    "saved_at": "2026-07-16T14:16:15.189Z"
  },
  {
    "id": "5bf2c16a-5d44-4bb8-9be2-43a84f34353f",
    "site_id": "Zeil-Frankfurt am Main",
    "site_name": "Zeil",
    "lat": 50.114238,
    "lng": 8.681391,
    "local_x": -1.7,
    "local_y": -6.09,
    "direction_deg": 72.5,
    "area_m2": 3619.83,
    "compactness": 0.1777,
    "occlusivity_m": 374.28,
    "enclosure_ratio": 0.6728,
    "saved_at": "2026-07-16T14:16:20.903Z"
  },
  {
    "id": "d5f075c2-114d-4dfa-aabe-62baa5baa26f",
    "site_id": "Gendarmenmarkt-Berlin",
    "site_name": "Gendarmenmarkt",
    "lat": 52.513845,
    "lng": 13.392824,
    "local_x": 62.58,
    "local_y": 27.06,
    "direction_deg": 168.7,
    "area_m2": 16249.06,
    "compactness": 0.3444,
    "occlusivity_m": 335.23,
    "enclosure_ratio": 0.2157,
    "saved_at": "2026-07-16T14:19:26.405Z"
  },
  {
    "id": "2c9906bd-c698-495f-a908-1c2e1a3ce44d",
    "site_id": "Gendarmenmarkt-Berlin",
    "site_name": "Gendarmenmarkt",
    "lat": 52.513431,
    "lng": 13.392587,
    "local_x": 46.51,
    "local_y": -18.66,
    "direction_deg": 102.6,
    "area_m2": 10407.66,
    "compactness": 0.2604,
    "occlusivity_m": 316.06,
    "enclosure_ratio": 0.2333,
    "saved_at": "2026-07-16T15:16:17.341Z"
  }
]